[
    {
      "Nama": "Desa Wisata Jatimulyo - Kulon Progo",
      "Rating": "4,2",
      "Alamat": "Sekretariat Desa Wisata",
      "Jam Buka": "⋅ Opens 10.00am Mon",
      "Full Address": "Desa Wisata Jatimulyo - Kulon Progo Sekretariat Desa Wisata",
      "Latitude": -7.7526214,
      "Longitude": 110.1307636
    },
    {
      "Nama": "Desa Wisata Nglinggo",
      "Rating": "4,4",
      "Alamat": "Kulon Progo Regency, Special Region of Yogyakarta",
      "Jam Buka": "⋅ Opens 9.00am Mon",
      "Full Address": "Desa Wisata Nglinggo Kulon Progo Regency, Special Region of Yogyakarta",
      "Latitude": -7.647668,
      "Longitude": 110.141878
    },
    {
      "Nama": "Desa Wisata Banjarasri",
      "Rating": "4,6",
      "Alamat": "Kulon Progo Regency, Special Region of Yogyakarta",
      "Jam Buka": "⋅ Opens 9.00am Mon",
      "Full Address": "Desa Wisata Banjarasri Kulon Progo Regency, Special Region of Yogyakarta",
      "Latitude": -7.6985187,
      "Longitude": 110.2254251
    },
    {
      "Nama": "Desa Wisata Widosari (Desa Wisata Widosari Jogja)",
      "Rating": "4,8",
      "Alamat": "Jalan Pangaji 7 Ngaliyan",
      "Jam Buka": "",
      "Full Address": "Desa Wisata Widosari (Desa Wisata Widosari Jogja) Jalan Pangaji 7 Ngaliyan",
      "Latitude": -7.0096639,
      "Longitude": 110.3259133
    },
    {
      "Nama": "Desa Wisata Tinalah (Dewi Tinalah - Wisata Jogja)",
      "Rating": "4,5",
      "Alamat": "Jl. Persandian No.KM 5",
      "Jam Buka": "⋅ Opens 8.00am Mon",
      "Full Address": "Desa Wisata Tinalah (Dewi Tinalah - Wisata Jogja) Jl. Persandian No.KM 5",
      "Latitude": -7.6955803,
      "Longitude": 110.1958839
    },
    {
      "Nama": "Desa Wisata Banjaroya Jogja",
      "Rating": "5,0",
      "Alamat": "Kapanewon Kalibawang, Kalurahan",
      "Jam Buka": "⋅ Opens 7.00am Mon",
      "Full Address": "Desa Wisata Banjaroya Jogja Kapanewon Kalibawang, Kalurahan",
      "Latitude": -7.6522479,
      "Longitude": 110.2558633
    },
    {
      "Nama": "Desa Wisata Sermo Hargowilis",
      "Rating": "",
      "Alamat": "54HF+W3R",
      "Jam Buka": "⋅ Opens 8.00am Mon",
      "Full Address": "Desa Wisata Sermo Hargowilis 54HF+W3R",
      "Latitude": -7.8201375,
      "Longitude": 110.1226406
    },
    {
      "Nama": "Puncak Kleco Desa Wisata Tinalah",
      "Rating": "4,5",
      "Alamat": "Kulon Progo Regency, Special Region of Yogyakarta",
      "Jam Buka": "",
      "Full Address": "Puncak Kleco Desa Wisata Tinalah Kulon Progo Regency, Special Region of Yogyakarta",
      "Latitude": -7.7125459,
      "Longitude": 110.2045109
    },
    {
      "Nama": "Kantor Desa Wisata Glagah",
      "Rating": "4,7",
      "Alamat": "Kulon Progo Regency, Special Region of Yogyakarta",
      "Jam Buka": "",
      "Full Address": "Kantor Desa Wisata Glagah Kulon Progo Regency, Special Region of Yogyakarta",
      "Latitude": -7.9031769,
      "Longitude": 110.0728308
    },
    {
      "Nama": "Puncak Widosari - Desa Wisata Widosari",
      "Rating": "4,6",
      "Alamat": "Kulon Progo Regency, Special Region of Yogyakarta",
      "Jam Buka": "⋅ Opens 6.00am Mon",
      "Full Address": "Puncak Widosari - Desa Wisata Widosari Kulon Progo Regency, Special Region of Yogyakarta",
      "Latitude": -7.6583125,
      "Longitude": 110.1488125
    },
    {
      "Nama": "Goa Sriti",
      "Rating": "4,3",
      "Alamat": "Kulon Progo Regency, Special Region of Yogyakarta",
      "Jam Buka": "⋅ Opens 9.00am Mon",
      "Full Address": "Goa Sriti Kulon Progo Regency, Special Region of Yogyakarta",
      "Latitude": -7.7035962,
      "Longitude": 110.2031232
    },
    {
      "Nama": "Desa Wisata Hargowilis",
      "Rating": "",
      "Alamat": "Kulon Progo Regency, Special Region of Yogyakarta",
      "Jam Buka": "⋅ Opens 8.00am Mon",
      "Full Address": "Desa Wisata Hargowilis Kulon Progo Regency, Special Region of Yogyakarta",
      "Latitude": -7.8241769,
      "Longitude": 110.1104789
    },
    {
      "Nama": "Desa Wisata Salamrejo",
      "Rating": "4,4",
      "Alamat": "Kulon Progo Regency, Special Region of Yogyakarta",
      "Jam Buka": "",
      "Full Address": "Desa Wisata Salamrejo Kulon Progo Regency, Special Region of Yogyakarta",
      "Latitude": -7.8506884,
      "Longitude": 110.2313331
    },
    {
      "Nama": "Segajih Live In",
      "Rating": "4,5",
      "Alamat": "Kulon Progo Regency, Special Region of Yogyakarta",
      "Jam Buka": "⋅ Opens 7.00am Mon",
      "Full Address": "Segajih Live In Kulon Progo Regency, Special Region of Yogyakarta",
      "Latitude": -7.7993863,
      "Longitude": 110.1166819
    },
    {
      "Nama": "dolaNdeso Boro",
      "Rating": "4,4",
      "Alamat": "Depok",
      "Jam Buka": "⋅ Opens 8.00am Mon",
      "Full Address": "dolaNdeso Boro Depok",
      "Latitude": -6.4024844,
      "Longitude": 106.7942405
    },
    {
      "Nama": "Tourism Village KABUDWAREH",
      "Rating": "4,1",
      "Alamat": "854Q+QG2",
      "Jam Buka": "",
      "Full Address": "Tourism Village KABUDWAREH 854Q+QG2",
      "Latitude": -7.6931245,
      "Longitude": 110.1887532
    },
    {
      "Nama": "Desa Wisata Edukasi Gulurejo",
      "Rating": "",
      "Alamat": "Kulon Progo Regency, Special Region of Yogyakarta",
      "Jam Buka": "⋅ Opens 9.00am Mon",
      "Full Address": "Desa Wisata Edukasi Gulurejo Kulon Progo Regency, Special Region of Yogyakarta",
      "Latitude": -7.9128421,
      "Longitude": 110.2589159
    },
    {
      "Nama": "Puncak Kuda Sembrani-Desa Wisata Banjarasri",
      "Rating": "4,3",
      "Alamat": "8657+57J",
      "Jam Buka": "⋅ Opens 6.00am Mon",
      "Full Address": "Puncak Kuda Sembrani-Desa Wisata Banjarasri 8657+57J",
      "Latitude": -7.6920487,
      "Longitude": 110.2131553
    },
    {
      "Nama": "Air Terjun Kembang Soka",
      "Rating": "4,7",
      "Alamat": "Jl. Raya Kaligesing",
      "Jam Buka": "⋅ Opens 9.00am Mon",
      "Full Address": "Air Terjun Kembang Soka Jl. Raya Kaligesing",
      "Latitude": -7.7664251,
      "Longitude": 110.1175615
    },
    {
      "Nama": "Wisata Desa Kedung Gajah x Jangkang Kidul",
      "Rating": "5,0",
      "Alamat": "56C7+5JX",
      "Jam Buka": "",
      "Full Address": "Wisata Desa Kedung Gajah x Jangkang Kidul 56C7+5JX",
      "Latitude": -7.8295125,
      "Longitude": 110.2141094
    },
    {
      "Nama": "Desa Wisata Nglambur",
      "Rating": "4,7",
      "Alamat": "Dusun Nglambur, Rt 03, RT.03/RW.02",
      "Jam Buka": "⋅ Opens 8.30am Mon",
      "Full Address": "Desa Wisata Nglambur Dusun Nglambur, Rt 03, RT.03/RW.02",
      "Latitude": -7.647624,
      "Longitude": 110.1892012
    },
    {
      "Nama": "Kampung Wisata Edukasi Kawasan Kalibiru",
      "Rating": "",
      "Alamat": "Jalan Lumpang Kentheng Jl. Dusun Kamal, RT.65/RW.29",
      "Jam Buka": "⋅ Opens 8.00am Mon",
      "Full Address": "Kampung Wisata Edukasi Kawasan Kalibiru Jalan Lumpang Kentheng Jl. Dusun Kamal, RT.65/RW.29",
      "Latitude": -7.8072986,
      "Longitude": 110.1261135
    },
    {
      "Nama": "Canting Mas Puncak Dipowono",
      "Rating": "4,4",
      "Alamat": "Jl. Clereng Tamanan KM. 6, Desa Hargowilis, Kokap",
      "Jam Buka": "",
      "Full Address": "Canting Mas Puncak Dipowono Jl. Clereng Tamanan KM. 6, Desa Hargowilis, Kokap",
      "Latitude": -7.80032,
      "Longitude": 110.128122
    },
    {
      "Nama": "Area fun tubing Desa wisata tinalah",
      "Rating": "",
      "Alamat": "Kulon Progo Regency, Special Region of Yogyakarta",
      "Jam Buka": "⋅ Opens 9.00am Mon",
      "Full Address": "Area fun tubing Desa wisata tinalah Kulon Progo Regency, Special Region of Yogyakarta",
      "Latitude": -7.7124874,
      "Longitude": 110.208505
    },
    {
      "Nama": "Desa Wisata Jangkaran",
      "Rating": "",
      "Alamat": "425P+FJ7, Jl. Pantai Congot",
      "Jam Buka": "",
      "Full Address": "Desa Wisata Jangkaran 425P+FJ7, Jl. Pantai Congot",
      "Latitude": -7.8951785,
      "Longitude": 110.0350078
    },
    {
      "Nama": "Wisata Kalibiru",
      "Rating": "4,4",
      "Alamat": "Jalan Waduk Sermo",
      "Jam Buka": "⋅ Opens 8.00am Mon",
      "Full Address": "Wisata Kalibiru Jalan Waduk Sermo",
      "Latitude": -7.8074219,
      "Longitude": 110.1292682
    },
    {
      "Nama": "Tourism Village Purwosari",
      "Rating": "4,3",
      "Alamat": "748M+29C",
      "Jam Buka": "⋅ Opens 8.00am Mon",
      "Full Address": "Tourism Village Purwosari 748M+29C",
      "Latitude": -7.7349251,
      "Longitude": 110.1333854
    },
    {
      "Nama": "EMBUNG TONOGORO (ꦲꦼꦩ꧀ꦧꦸꦁꦠꦤꦒꦫ) - DESA BANJAROYO - KALIBAWANG",
      "Rating": "4,5",
      "Alamat": "86RM+CP5",
      "Jam Buka": "⋅ Opens 8.00am Mon",
      "Full Address": "EMBUNG TONOGORO (ꦲꦼꦩ꧀ꦧꦸꦁꦠꦤꦒꦫ) - DESA BANJAROYO - KALIBAWANG 86RM+CP5",
      "Latitude": -7.6589845,
      "Longitude": 110.234359
    },
    {
      "Nama": "Jogja Memotarium Wisata Desa",
      "Rating": "4,4",
      "Alamat": "6437+MQX",
      "Jam Buka": "⋅ Opens 9.00am Mon",
      "Full Address": "Jogja Memotarium Wisata Desa 6437+MQX",
      "Latitude": -7.7957599,
      "Longitude": 110.1144755
    },
    {
      "Nama": "Kawasan desa WISATA SAWAH SURJAN TURIREJO PLERET",
      "Rating": "",
      "Alamat": "348W+PQ3, Pleret IV, RT.15/RW.08",
      "Jam Buka": "",
      "Full Address": "Kawasan desa WISATA SAWAH SURJAN TURIREJO PLERET 348W+PQ3, Pleret IV, RT.15/RW.08",
      "Latitude": -7.9332447,
      "Longitude": 110.1469078
    },
    {
      "Nama": "Wisata nglinggo",
      "Rating": "4,0",
      "Alamat": "84JW+G5Q",
      "Jam Buka": "",
      "Full Address": "Wisata nglinggo 84JW+G5Q",
      "Latitude": -7.6686625,
      "Longitude": 111.1454844
    },
    {
      "Nama": "DESA WISATA JONGGRANGAN",
      "Rating": "4,3",
      "Alamat": "Sleman Regency, Special Region of Yogyakarta",
      "Jam Buka": "⋅ Opens 9.00am Mon",
      "Full Address": "DESA WISATA JONGGRANGAN Sleman Regency, Special Region of Yogyakarta",
      "Latitude": -7.7102818,
      "Longitude": 110.2687623
    },
    {
      "Nama": "Pawon Taman Sidorejo",
      "Rating": "4,9",
      "Alamat": "36GV+7VW, Jl. Balai Desa Sidorejo",
      "Jam Buka": "⋅ 11.00pm",
      "Full Address": "Pawon Taman Sidorejo 36GV+7VW, Jl. Balai Desa Sidorejo",
      "Latitude": -7.92426,
      "Longitude": 110.2446917
    },
    {
      "Nama": "Bukit Wisata Pulepayung",
      "Rating": "4,5",
      "Alamat": "Soropati RT.007/RW.003",
      "Jam Buka": "⋅ Opens 8.00am Mon",
      "Full Address": "Bukit Wisata Pulepayung Soropati RT.007/RW.003",
      "Latitude": -7.7999428,
      "Longitude": 110.1237712
    },
    {
      "Nama": "Wisata Jati Moncol",
      "Rating": "4,6",
      "Alamat": "46P8+9P2",
      "Jam Buka": "⋅ Opens 9.00am Tue",
      "Full Address": "Wisata Jati Moncol 46P8+9P2",
      "Latitude": -7.8641191,
      "Longitude": 110.2167649
    },
    {
      "Nama": "Wisata Punthuk Ngepoh",
      "Rating": "4,5",
      "Alamat": "Kulon Progo Regency, Special Region of Yogyakarta",
      "Jam Buka": "⋅ 11.00pm",
      "Full Address": "Wisata Punthuk Ngepoh Kulon Progo Regency, Special Region of Yogyakarta",
      "Latitude": -7.7173943,
      "Longitude": 110.1918837
    }
  ]

